[
  {
    "id": 280,
    "name": "铂林国际公寓",
    "address": "广东省广州市天河区铂林国际公寓",
    "lon": 113.316601,
    "lat": 23.119065,
    "src": "LianJia"
  },
  {
    "id": 88,
    "name": "兴禺大厦",
    "address": "广东省广州市天河区兴禺大厦",
    "lon": 113.318819,
    "lat": 23.153149,
    "src": "LianJia"
  },
  {
    "id": 10,
    "name": "林和东公安住宅区",
    "address": "广东省广州市天河区公安住宅区",
    "lon": 113.32728,
    "lat": 23.145957,
    "src": "LianJia"
  },
  {
    "id": 264,
    "name": "光华大厦",
    "address": "广东省广州市天河区光华大厦",
    "lon": 113.319322,
    "lat": 23.14058,
    "src": "AnJuKe"
  },
  {
    "id": 172,
    "name": "先烈中路81号大院",
    "address": "广东省广州市越秀区先烈中路81号大院",
    "lon": 113.298488,
    "lat": 23.14037,
    "src": "AnJuKe"
  },
  {
    "id": 254,
    "name": "侨怡苑",
    "address": "广东省广州市天河区侨怡苑",
    "lon": 113.33021,
    "lat": 23.140694,
    "src": "AnJuKe"
  },
  {
    "id": 280,
    "name": "铂林国际公寓",
    "address": "广东省广州市天河区铂林国际公寓",
    "lon": 113.316601,
    "lat": 23.119065,
    "src": "AnJuKe"
  },
  {
    "id": 139,
    "name": "云鹤北街小区",
    "address": "广东省广州市越秀区云鹤北街小区",
    "lon": 113.30218,
    "lat": 23.14162,
    "src": "AnJuKe"
  },
  {
    "id": 134,
    "name": "新大厦国际公寓",
    "address": "广东省广州市天河区新大厦国际公寓",
    "lon": 113.315915,
    "lat": 23.118143,
    "src": "AnJuKe"
  },
  {
    "id": 227,
    "name": "田新小区",
    "address": "广东省广州市天河区田新小区",
    "lon": 113.30486,
    "lat": 23.151774,
    "src": "AnJuKe"
  },
  {
    "id": 113,
    "name": "水荫直街小区",
    "address": "广东省广州市越秀区水荫直街小区",
    "lon": 113.30861,
    "lat": 23.137591,
    "src": "LianJia"
  },
  {
    "id": 319,
    "name": "先烈中路102号大院",
    "address": "广东省广州市越秀区先烈中路102号大院",
    "lon": 113.301833,
    "lat": 23.14176,
    "src": "AnJuKe"
  },
  {
    "id": 85,
    "name": "绿庭苑",
    "address": "广东省广州市天河区绿庭苑",
    "lon": 113.319364,
    "lat": 23.139776,
    "src": "LianJia"
  },
  {
    "id": 264,
    "name": "光华大厦",
    "address": "广东省广州市天河区光华大厦",
    "lon": 113.319322,
    "lat": 23.14058,
    "src": "LianJia"
  },
  {
    "id": 319,
    "name": "先烈中路102号大院",
    "address": "广东省广州市越秀区先烈中路102号大院",
    "lon": 113.301833,
    "lat": 23.14176,
    "src": "LianJia"
  },
  {
    "id": 172,
    "name": "先烈中路81号大院",
    "address": "广东省广州市越秀区先烈中路81号大院",
    "lon": 113.298488,
    "lat": 23.14037,
    "src": "LianJia"
  },
  {
    "id": 315,
    "name": "佳兆业1号",
    "address": "广东省广州市天河区佳兆业|1楼",
    "lon": 113.320437,
    "lat": 23.139873,
    "src": "LianJia"
  },
  {
    "id": 134,
    "name": "新大厦国际公寓",
    "address": "广东省广州市天河区新大厦国际公寓",
    "lon": 113.315915,
    "lat": 23.118143,
    "src": "LianJia"
  },
  {
    "id": 2,
    "name": "淘金坑住宅小区",
    "address": "广东省广州市越秀区淘金坑",
    "lon": 113.287217,
    "lat": 23.138807,
    "src": "LianJia"
  },
  {
    "id": 315,
    "name": "佳兆业1号",
    "address": "广东省广州市天河区佳兆业|1楼",
    "lon": 113.320437,
    "lat": 23.139873,
    "src": "AnJuKe"
  },
  {
    "id": 64,
    "name": "五羊新城E区",
    "address": "广东省广州市越秀区五羊新城e区",
    "lon": 113.313254,
    "lat": 23.116851,
    "src": "LianJia"
  },
  {
    "id": 15,
    "name": "天河星作",
    "address": "广东省广州市天河区天河",
    "lon": 113.328704,
    "lat": 23.160937,
    "src": "LianJia"
  },
  {
    "id": 139,
    "name": "云鹤北街小区",
    "address": "广东省广州市越秀区云鹤北街小区",
    "lon": 113.30218,
    "lat": 23.14162,
    "src": "LianJia"
  },
  {
    "id": 254,
    "name": "侨怡苑",
    "address": "广东省广州市天河区侨怡苑",
    "lon": 113.33021,
    "lat": 23.140694,
    "src": "LianJia"
  },
  {
    "id": 227,
    "name": "田新小区",
    "address": "广东省广州市天河区田新小区",
    "lon": 113.30486,
    "lat": 23.151774,
    "src": "LianJia"
  },
  {
    "id": 15,
    "name": "天河星作",
    "address": "广东省广州市天河区天河",
    "lon": 113.328704,
    "lat": 23.160937,
    "src": "AnJuKe"
  },
  {
    "id": 88,
    "name": "兴禺大厦",
    "address": "广东省广州市天河区兴禺大厦",
    "lon": 113.318819,
    "lat": 23.153149,
    "src": "AnJuKe"
  },
  {
    "id": 85,
    "name": "绿庭苑",
    "address": "广东省广州市天河区绿庭苑",
    "lon": 113.319364,
    "lat": 23.139776,
    "src": "AnJuKe"
  },
  {
    "id": 10,
    "name": "林和东公安住宅区",
    "address": "广东省广州市天河区公安住宅区",
    "lon": 113.32728,
    "lat": 23.145957,
    "src": "AnJuKe"
  },
  {
    "id": 113,
    "name": "水荫直街小区",
    "address": "广东省广州市越秀区水荫直街小区",
    "lon": 113.30861,
    "lat": 23.137591,
    "src": "AnJuKe"
  },
  {
    "id": 2,
    "name": "淘金坑住宅小区",
    "address": "广东省广州市越秀区淘金坑",
    "lon": 113.287217,
    "lat": 23.138807,
    "src": "AnJuKe"
  },
  {
    "id": 64,
    "name": "五羊新城E区",
    "address": "广东省广州市越秀区五羊新城e区",
    "lon": 113.313254,
    "lat": 23.116851,
    "src": "AnJuKe"
  },
  {
    "id": 37,
    "name": "粤康阁",
    "address": "广东省广州市越秀区粤康阁",
    "lon": 113.314596,
    "lat": 23.119455,
    "src": "AnJuKe"
  },
  {
    "id": 37,
    "name": "粤康阁",
    "address": "广东省广州市越秀区粤康阁",
    "lon": 113.314596,
    "lat": 23.119455,
    "src": "LianJia"
  }
]